Name,Address,Website,Plus-code,lat,lon
Ultimate Xpress,"121 West Terrace, Adelaide SA 5000, Australia ",http://www.ultimatexpress.com.au/,"3H9Q+J9 Adelaide, South Australia, Australia",-34.9309027,138.5884796
Aqua Hand Car Wash & Detailing,"22-26 Main N Rd, Prospect SA 5082, Australia ",http://www.aquacarwash.com.au/,"4J32+H2 Prospect, South Australia, Australia",-34.8960391,138.600118
Zippy's Carwash,"200 Main N Rd, Prospect SA 5082, Australia ",http://www.zippyscarwash.com.au/content/location,"4J92+9V Prospect, South Australia, Australia",-34.881504,138.602157
AUSWASH Car Wash and Detailing,"287 North East Road, Hampstead Gardens SA 5086, Australia ",https://auswash.com.au/,"4JGM+PJ Hampstead Gardens, South Australia, Australia",-34.8732275,138.6340716
Flufferz carwash,"273 North East Road, Hampstead Gardens SA 5086, Australia ",https://fluffercarwash.com.au/,"4JGM+94 Hampstead Gardens, South Australia, Australia",-34.8740291,138.6327742
CARWASH KING - Gilles Plains,"605 North East Road, Gilles Plains SA 5086, Australia ",http://www.carwashking.com.au/,"4MW5+2R Gilles Plains, South Australia, Australia",-34.8549348,138.6595212
Adelaide Mobile Detailing,"Rundle Mall, Adelaide SA 5000, Australia ",https://www.adelaidemobiledetailing.com/?utm_source=google&utm_medium=wix_google_business_profile&utm_campaign=8365517925256593918,"3JG3+V2 Adelaide, South Australia, Australia",-34.9228403,138.6025388
Bubbles car wash and cafe,"273 North East Road, Hampstead Gardens SA 5086, Australia ",http://www.bubblescarwashcafe.com.au/,"4JGM+C4 Hampstead Gardens, South Australia, Australia",-34.8739935,138.6327603
Paul's Car Wash,"183 Main N Rd, Nailsworth SA 5083, Australia ",http://www.paulscarwash.com.au/,"4J93+95 Nailsworth, South Australia, Australia",-34.8815021,138.6029911
HappyWash West Terrace,"41-49 West Terrace, Adelaide SA 5000, Australia ",https://www.otr.com.au/locations/adelaide-41-49-west-terrace/bp-west-terrace/,"3HFQ+Q6 Adelaide, South Australia, Australia",-34.9255838,138.5881224
Splash Car Wash & Detailing,"395 Glen Osmond Rd, Glen Osmond SA 5064, Australia ",https://www.splashcarwash.com.au/,"2JQV+87 Glen Osmond, South Australia, Australia",-34.9616733,138.6431589
Grand Junction Car Wash,"554 Main N Rd, Blair Athol SA 5084, Australia ",,"5H2X+6X Blair Athol, South Australia, Australia",-34.8494942,138.5999018
G'Zox Adelaide,"52-56 Byron Pl, Adelaide SA 5000, Australia ",http://www.gzox.com/english,"3HCR+JV Adelaide, South Australia, Australia",-34.9284649,138.5921597
Speed Car Wash,"400 Churchill Rd, Kilburn SA 5084, Australia ",,"4HMM+98 Kilburn, South Australia, Australia",-34.8665524,138.5832713
CARWASH KING - Glynde,"410 Payneham Rd, Glynde SA 5070, Australia ",http://www.carwashking.com.au/,"4J4X+Q8 Glynde, South Australia, Australia",-34.8930576,138.6483089
WoWo Washing,"181 Anzac Hwy, Kurralta Park SA 5037, Australia ",https://wowowashing.com/,"2HV7+2C Kurralta Park, South Australia, Australia",-34.9574364,138.5635685
CARWASH KING - Frewville,"231 Glen Osmond Rd, Frewville SA 5063, Australia ",http://www.carwashking.com.au/,"3J2J+77 Frewville, South Australia, Australia",-34.9492536,138.6306829
Shine Car Spa,"286 Fullarton Rd, Fullarton SA 5063, Australia ",https://shinecarspa.com.au/,"3J2G+M6 Fullarton, South Australia, Australia",-34.9482911,138.6255364
Big Bucket Car Wash,"LOT 13 Lawrence Hargrave Way, Parafield SA 5106, Australia ",http://www.bigbucketcarwash.com.au/,"6J5W+62 Parafield, South Australia, Australia",-34.7919682,138.6450804
CARWASH KING - Glynde,"410 Payneham Rd, Glynde SA 5070, Australia ",http://www.carwashking.com.au/,"4J4X+Q8 Glynde, South Australia, Australia",-34.8930576,138.6483089
Smiley Car Wash Clarence Gardens,"877 South Rd, Clarence Gardens SA 5039, Australia ",https://smileycarwash.com.au/,"2HGF+MF Clarence Gardens, South Australia, Australia",-34.9733296,138.5737157
Wash on Grange,"138 Grange Rd, Flinders Park SA 5025, Australia ",http://www.washongrange.com.au/,"3HW3+56 Flinders Park, South Australia, Australia",-34.9045736,138.5530857
CARWASH KING - Frewville,"231 Glen Osmond Rd, Frewville SA 5063, Australia ",http://www.carwashking.com.au/,"3J2J+77 Frewville, South Australia, Australia",-34.9492536,138.6306829
Speed Car Wash,"400 Churchill Rd, Kilburn SA 5084, Australia ",,"4HMM+98 Kilburn, South Australia, Australia",-34.8665524,138.5832713
Big Bucket Car Wash,"LOT 13 Lawrence Hargrave Way, Parafield SA 5106, Australia ",http://www.bigbucketcarwash.com.au/,"6J5W+62 Parafield, South Australia, Australia",-34.7919682,138.6450804
The Wash Glenelg,"Rooftop/22 Gordon St, Glenelg SA 5045, Australia ",http://www.thewash.com.au/,"2GC9+HV Glenelg, South Australia, Australia",-34.9785174,138.5197318
HappyWash Pultney Street,"281/305 Pulteney St, Adelaide SA 5000, Australia ",https://www.otr.com.au/locations/adelaide-139-angas-st-pulteney-st/otr-adelaide/,"3J94+V6 Adelaide, South Australia, Australia",-34.9302938,138.6056148
Crystal Shine Hand Car Wash & Detailing,"400 Churchill Rd, Kilburn SA 5084, Australia ",http://www.crystalshinecarwash.com.au/,"4HMM+C8 Kilburn, South Australia, Australia",-34.8664203,138.5832904
The Stables Car & Motorbike Detailing Adelaide,"101 Morphett Rd, Morphettville SA 5043, Australia ",https://thestables.au/,"2G8Q+RF Morphettville, South Australia, Australia",-34.9828984,138.5386639
Happy Wash South Plympton,"501-503 Marion Rd, South Plympton SA 5038, Australia ",https://www.otr.com.au/locations/south-plympton--503-marion-road/south-plympton-drive-thru/,"2HG4+P8 South Plympton, South Australia, Australia",-34.9732152,138.5557656
The Quick Carwash,"1145 North East Road, Ridgehaven SA 5097, Australia ",,"5PG5+GV Ridgehaven, South Australia, Australia",-34.8236878,138.7096335
Best Wash And Detailing,"388 Main N Rd, Blair Athol SA 5084, Australia ",,,-34.8630748,138.600825
In N Out Car Wash,"31 Grassmere Rd, Prospect SA 5082, Australia ",https://innoutcarwash.com.au/,,-34.8742234,138.600873
Five Star Mobile Detailing,"337 Whites road 264 main n rd prospect, Paralowie SA 5108, Australia ",http://fivestarmobiledetailing.com.au/,,-34.8099387,138.615716
Port Car Wash,"242 Port Rd, Alberton SA 5014, Australia ",,"4GW6+93 Alberton, South Australia, Australia",-34.854119,138.5101754
Next Level Detailing,"6 Nelson St, Stepney SA 5069, Australia ",https://nextleveldetailing.com.au/,"3JPJ+59 Stepney, South Australia, Australia",-34.9146243,138.6309998
Time2Shine Hand Car Wash,"460-470 Torrens Rd, Kilkenny SA 5009, Australia ",http://www.time2shine.net.au/,"4GFX+MW Kilkenny, South Australia, Australia",-34.8757556,138.5497573
Pro Wash,"Golden Grove SA 5125, Australia ",,"6M5R+5G Golden Grove, South Australia, Australia",-34.7920187,138.6912651
Brickworks Hand Car Wash & Detailing,"Unit 6/2 Ashwin Parade, Torrensville SA 5031, Australia ",https://www.facebook.com/touchnglowcarwash/,"3HP6+QR Torrensville, South Australia, Australia",-34.9130201,138.5620748
Detailing Adelaide,"Unit 5/47-49 Elizabeth St, Norwood SA 5067, Australia ",https://www.detailingadelaide.com.au/,"3JFH+HR Norwood, South Australia, Australia",-34.9260261,138.6295026
Mr Sparkle Auto Detailing,"3/79 Exeter Terrace, Dudley Park SA 5008, Australia ",https://www.facebook.com/Mrsparklecardetailing/,"4H9M+72 Dudley Park, South Australia, Australia",-34.8818471,138.5825744
Extreme Auto Detailing,"44 Adrian St, Ingle Farm SA 5098, Australia ",,"5MF2+36 Ingle Farm, South Australia, Australia",-34.8273099,138.6505551
Wash & Shine Hand Carwash & Detailing,"Shopping Centre, Walkleys Rd, Ingle Farm SA 5098, Australia ",,"5JCW+JM Ingle Farm, South Australia, Australia",-34.8284124,138.6467266
Tom's Car Wash,"151 Sir Donald Bradman Dr, Hilton SA 5033, Australia ",https://www.facebook.com/Toms-Carwash-155929124476116/,"3H97+38 Hilton, South Australia, Australia",-34.9323518,138.5632848
HappyWash Clarence Park,"338/346 Goodwood Rd, Clarence Park SA 5034, Australia ",https://www.otr.com.au/happywash-car-wash/,"2HMR+M5 Clarence Park, South Australia, Australia",-34.9658039,138.5903864
First Choice Cleaning SA,"194B Marion Rd, West Richmond SA 5033, Australia ",,"3H53+23 West Richmond, South Australia, Australia",-34.9424786,138.5527298
Star Car Wash - Westfield Westlakes,"Undercover Car Park, Westfield Westlakes, Pad 3/111 W Lakes Blvd, West Lakes SA 5021, Australia ",https://www.starcarwash.com.au/centres/westlakes/?utm_source=google&utm_medium=organic&utm_campaign=gmb-listing,"4FCR+MW West Lakes, South Australia, Australia",-34.878337,138.4923549
Mobile Car Wash Adelaide,"Unit 5/47-49 Elizabeth St, Norwood SA 5067, Australia ",https://mobilecarwashadelaide.com.au/,"3JFH+HR Norwood, South Australia, Australia",-34.9260261,138.6295026
Pitstop carwash richmond,"191 Richmond Rd, Richmond SA 5033, Australia ",,"3H57+33 Richmond, South Australia, Australia",-34.9422527,138.5626451
Star Car Wash - Westfield Tea Tree,"976 North East Road, Modbury SA 5092, Australia ",https://www.starcarwash.com.au/centres/tea-tree/?utm_source=google&utm_medium=organic&utm_campaign=gmb-listing,"5M9Q+2J Modbury, South Australia, Australia",-34.8324013,138.6890888
Clean Getaway Car Wash,"365 Grange Rd, Findon SA 5023, Australia ",,"3GVH+R4 Findon, South Australia, Australia",-34.905414,138.5278414
HappyWash Evandale,"87/91 Portrush Rd, Evandale SA 5069, Australia ",https://www.otr.com.au/happywash-car-wash/,"3JWQ+8M Evandale, South Australia, Australia",-34.904163,138.6391824
HappyWash Kensington,"294 The Parade, Kensington SA 5068, Australia ",https://www.otr.com.au/locations/kensington-294-the-parade/bp-kensington/,"3JHV+H8 Kensington, South Australia, Australia",-34.9210975,138.643345
Elite Car Detailers,"11 Rosemary St, Woodville West SA 5011, Australia ",https://www.elitecardetailers.com.au/,"4G7H+MG Woodville West, South Australia, Australia",-34.8857868,138.528844
HappyWash Unley,"17 King William Rd, Hyde Park SA 5061, Australia ",https://www.otr.com.au/locations/unley-17-king-william-road/bp-hyde-park/,"3J42+Q4 Hyde Park, South Australia, Australia",-34.9430013,138.6002593
Pitstop Hand Carwash,"294 Marion Rd, Netley SA 5037, Australia ",,"2HX3+99 Netley, South Australia, Australia",-34.9516199,138.5534094
Adelaide Automotive Detailing,"16 O'Brien St, Adelaide SA 5000, Australia ",http://adelaideautomotivedetailing.com.au/,"3H8Q+9R Adelaide, South Australia, Australia",-34.9340383,138.5896132
GMC Detailing,"9 Amber Ave, Clearview SA 5085, Australia ",https://www.gmcd.com.au/services/,"5J26+J6 Clearview, South Australia, Australia",-34.8484512,138.6105758
Happy Wash Wayville,"51 Goodwood Rd, Wayville SA 5034, Australia ",https://www.otr.com.au/locations/wayville-51-goodwood-road/bp-wayville/,"3H3R+C4 Wayville, South Australia, Australia",-34.9464784,138.590264
HappyWash Torrensville,"253 Henley Beach Rd, Torrensville SA 5031, Australia ",https://www.otr.com.au/happywash-car-wash/,"3HG3+35 Torrensville, South Australia, Australia",-34.9248291,138.55298
HappyWash Woodville Park,"81 David Terrace, Woodville Park SA 5011, Australia ",https://www.otr.com.au/locations/woodville-park--81-david-tce/bp-woodville-park/,"4G9X+GR Woodville Park, South Australia, Australia",-34.8811701,138.54962
Reflections Car Detail,"1A Halifax St, Hilton SA 5033, Australia ",https://reflectionscardetail.com.au/,"3H97+9V Hilton, South Australia, Australia",-34.9315875,138.5647383
Premium Shine Detailing,"Unit 6/113 Welland Ave, Welland SA 5007, Australia ",,"3HR5+5X Welland, South Australia, Australia",-34.9095215,138.5599686
HappyWash Flinders Park,"148 Grange Rd, Flinders Park SA 5025, Australia ",https://www.otr.com.au/happywash-car-wash/,"3HW2+2H Flinders Park, South Australia, Australia",-34.9049159,138.551442
HappyWash Modbury,"927 North East Road, Modbury SA 5092, Australia ",https://www.otr.com.au/happywash-car-wash/,"5M8J+5G Modbury, South Australia, Australia",-34.8345536,138.6813413
Happy Wash Plympton,"279 Anzac Hwy, Plympton SA 5038, Australia ",https://www.otr.com.au/happywash-car-wash,"2HP4+M3 Plympton, South Australia, Australia",-34.9633276,138.5551339
Fine Automotive Detailing,"42 Moss Ave, Marleston SA 5033, Australia ",https://fineautomotivedetailing.com.au/,"3H37+38 Marleston, South Australia, Australia",-34.9472706,138.5633295
HappyWash Hillcrest,"431-435 North East Road, Hillcrest SA 5086, Australia ",https://www.otr.com.au/locations/hillcrest-431-north-east-road/bp-hillcrest/,"4JPW+43 Hillcrest, South Australia, Australia",-34.8647206,138.6451899
Nestie Detailing,"16 Goldsborough Rd, Cavan SA 5094, Australia ",https://www.nestiedetailing.com.au/,"5J92+6C Cavan, South Australia, Australia",-34.8319186,138.6010739
Car Adelaide Auto Electrician,"Windsor Gardens SA 5087, Australia ",,"4JMV+9F Windsor Gardens, South Australia, Australia",-34.8665279,138.6437444
Crystal Hand Car Wash,"47 Glynburn Rd, Glynde SA 5070, Australia ",http://crystalhandcarwash.com.au/,"4M44+8H Glynde, South Australia, Australia",-34.8941503,138.6564728
Happy Wash Ridleyton,"241 South Rd, Ridleyton SA 5008, Australia ",https://www.otr.com.au/locations/ridleyton-233-south-road/bp-croydon/,"4H6C+24 Ridleyton, South Australia, Australia",-34.8899393,138.5703431
HappyWash Tranmere,"172-176 Glynburn Rd, Tranmere SA 5073, Australia ",https://www.otr.com.au/happywash-car-wash/,"3MX5+24 Tranmere, South Australia, Australia",-34.9024794,138.6578646
Happy Wash Woodville West,"938-942 Port Rd, Woodville West SA 5011, Australia ",https://www.otr.com.au/locations/woodville-west-938---942-port-road/bp-woodville-west/,"4GFH+3J Woodville West, South Australia, Australia",-34.877335,138.5291053
HappyWash Hilton,"81 Sir Donald Bradman Dr, Hilton SA 5033, Australia ",http://www.ontherun.com.au/locations/hilton-79-81-sir-donald-bradman-dve/bp-hilton/,"3H99+2P Hilton, South Australia, Australia",-34.9324922,138.5692845
HappyWash Angle Park,"610/612 South Rd, Angle Park SA 5010, Australia ",https://www.otr.com.au/happywash-car-wash/,"4HV7+HP Angle Park, South Australia, Australia",-34.8560646,138.5643646
HappyWash Glandore,"134/136A Anzac Hwy, Kurralta Park SA 5037, Australia ",https://www.otr.com.au/locations/glandore--130-136-anzac-highway/on-the-run-glandore/,"2HV9+VG Kurralta Park, South Australia, Australia",-34.9553153,138.5687669
Classic Clean Auto Electrician Adelaide,"428 Main N Rd, Blair Athol SA 5084, Australia ",,"4JR2+46 Blair Athol, South Australia, Australia",-34.8596485,138.6005885
Adelaide car wash,"859 South Rd, Clarence Gardens SA 5039, Australia ",,"2HHF+4F Clarence Gardens, South Australia, Australia",-34.9721834,138.5737271
Pitstop Car Wash Campbelltown,"602 Lower North East Rd, Campbelltown SA 5074, Australia ",,"4MC7+45 Campbelltown, South Australia, Australia",-34.8796768,138.662918
Pepper's Truck Wash,"553 Grand Jct Rd, Wingfield SA 5013, Australia ",http://www.lavertontruckwash.net.au/,"5H2C+J5 Wingfield, South Australia, Australia",-34.8484063,138.570473
Atomic Detailing Adelaide,"Unit 6/11-13 Bremen Dr, Salisbury South SA 5106, Australia ",https://www.atomicdetailingadelaide.com.au/,"6J8P+QH Salisbury South, South Australia, Australia",-34.783119,138.6364776
Laserwash,"140 Grange Rd, Flinders Park SA 5025, Australia ",,"3HW3+56 Flinders Park, South Australia, Australia",-34.9045681,138.5531085
HappyWash Rosewater,"125 Grand Jct Rd, Rosewater SA 5013, Australia ",https://www.otr.com.au/locations/rosewater-125-grand-junction-road/bp-roseville/,"4GXF+FQ Rosewater, South Australia, Australia",-34.8513708,138.524428
HappyWash Kilburn,"427-433 Churchill Rd, Kilburn SA 5084, Australia ",https://www.otr.com.au/locations/kilburn-427-churchill-rd/bp-kilburn/,"4HRM+49 Kilburn, South Australia, Australia",-34.859687,138.5834396
HappyWash Pooraka,"126 Bridge Rd, Pooraka SA 5095, Australia ",https://www.otr.com.au/locations/pooraka-126-bridge-road/bp-pooraka/,"5JCJ+PQ Pooraka, South Australia, Australia",-34.8281669,138.6319122
HappyWash Mawson Lakes,"14 Capital St, Mawson Lakes SA 5095, Australia ",https://www.otr.com.au/locations/mawson-lakes-7-9-central-link/otr-mawson-lakes/,"5JV7+WV Mawson Lakes, South Australia, Australia",-34.8051433,138.6147499
Car wash,"48 Merchant Cres, Pooraka SA 5095, Australia ",,"5J86+J3 Pooraka, South Australia, Australia",-34.8334968,138.6101554
HappyWash Athelstone,"310 Gorge Rd, Athelstone SA 5076, Australia ",https://www.otr.com.au/happywash-car-wash/,"4PH2+85 Athelstone, South Australia, Australia",-34.8717417,138.7004209
HappyWash Newton,"72 Gorge Rd, Newton SA 5074, Australia ",https://www.otr.com.au/locations/newton-72-gorge-road/bp-newton/,"4MFF+9F Newton, South Australia, Australia",-34.8766188,138.6736565
Precise Auto Detailing,"Unit 2/9 Aroha Terrace, Black Forest SA 5035, Australia ",,"2HVH+WX Black Forest, South Australia, Australia",-34.955154,138.5799633
Goody's Car Wash,"1086 South Rd, Edwardstown SA 5039, Australia ",https://www.goodyscarwash.au/,"2H5F+RQ Edwardstown, South Australia, Australia",-34.9903793,138.5744628
Mad Coupe Ceramic Coating | Paint Protection | Window Tinting Services in Adelaide,"Unit 4/1413 Main N Rd, Para Hills West SA 5096, Australia ",https://madcoupe.com.au/,"6J3V+CX Para Hills West, South Australia, Australia",-34.7963805,138.64488
PB 32 Pro Paint Protection Adelaide,"979 Port Rd, Cheltenham SA 5014, Australia ",,"4GJ9+4V Cheltenham, South Australia, Australia",-34.8697068,138.5197457
bp,"41-49 West Terrace, Adelaide SA 5000, Australia ",https://map.bp.com/en-AU/AU/gas-station/adelaide/bp-otr-west-terrace/3171,"3HFQ+V5 Adelaide, South Australia, Australia",-34.9253,138.5879
Supreme Car Detailing Adelaide,"Research Rd, Pooraka SA 5095, Australia ",https://www.facebook.com/profile.php?id=100091862346691&mibextid=LQQJ4d,"5JMM+JR Pooraka, South Australia, Australia",-34.8159301,138.6345377
Car Wash,"Fulham Gardens SA 5024, Australia ",,"3GM7+R8 Fulham Gardens, South Australia, Australia",-34.9153877,138.51337
SHINE TRUCK & CAR MOBILE WASH,"15 Bayer Ave, Dudley Park SA 5008, Australia ",,"4HFH+P5 Dudley Park, South Australia, Australia",-34.8757405,138.5779942
Platinum detailers,"Unit 3/8c McGowan St, Pooraka SA 5095, Australia ",,"5JJP+CJ Pooraka, South Australia, Australia",-34.818932,138.636611
