Name,Address,Website,Plus-code,lat,lon
Crystal Car Wash Coogee,"6 Bream St, Coogee NSW 2034, Australia ",http://crystalcarwash.com/,"36MX+5H Coogee, New South Wales, Australia",-33.917124,151.2489779
Avoca Street Carwash,"107 Avoca St, Randwick NSW 2031, Australia ",https://avocastreetcarwash.com.au/,"36QV+6C Randwick, New South Wales, Australia",-33.9118993,151.2435329
Shop & Wash Randwick,"Level B2, Royal Randwick Shopping Centre, 73-115 Belmore Rd, Randwick NSW 2031, Australia ",http://www.carwashfinder.com.au/carwash/new-south-wales/eastern-sydney/down-under-car-wash,"36PR+3H Randwick, New South Wales, Australia",-33.9147919,151.2414797
Bp Randwick car wash,"8/10 Perouse Rd, Randwick NSW 2031, Australia ",https://www.bp.com/en_au/australia/home/who-we-are/find-your-nearest-bp.html,"36JR+CV Randwick, New South Wales, Australia",-33.9189379,151.2422252
Crystal Car Wash Kingsford,"417 Anzac Parade, Kingsford NSW 2032, Australia ",http://crystalcarwash.com/,"36FH+JW Kingsford, New South Wales, Australia",-33.9259228,151.2297537
Randwick Petroleum,"88 Clovelly Rd, Randwick NSW 2031, Australia ",,"36RX+8F Randwick, New South Wales, Australia",-33.9091451,151.2486566
