Name,Address,Website,Plus-code,lat,lon
WOW Wash Mobile Car Wash & Detailing,"15 Blue St, North Sydney NSW 2060, Australia ",http://wowwashmobilecardetailing.com.au/,"5654+FX North Sydney, New South Wales, Australia",-33.8412663,151.207498
Concierge Car Wash Crows Nest,"448 Pacific Hwy, Crows Nest NSW 2065, Australia ",https://conciergecarwash.com.au/,"55GX+24 Crows Nest, New South Wales, Australia",-33.8249579,151.1977692
getneat Mobile Car Wash North Shore,"2 Spruson St, Neutral Bay NSW 2089, Australia ",https://getneat.com.au/,"5668+97 Neutral Bay, New South Wales, Australia",-33.8390645,151.2157286
Platinum car wash and detailing services (greenwood plaza),"90 Pacific Hwy, North Sydney NSW 2060, Australia ",,"5664+7V North Sydney, New South Wales, Australia",-33.8393696,151.2071474
Kirribilli Laundry & Drycleaning,"3 Bligh St, Kirribilli NSW 2061, Australia ",,"5637+7P Kirribilli, New South Wales, Australia",-33.846848,151.2143087
Prior Avenue Car Wash,"Prior Ave, Cremorne Point NSW 2090, Australia ",,"566G+Q3 Cremorne Point, New South Wales, Australia",-33.8380197,151.2252299
North Shore Car Care,"Mosman St, Mosman NSW 2088, Australia ",,"566M+C2 Mosman, New South Wales, Australia",-33.8388779,151.2326141
